{"businesses": [{"id": "VA8aPObRynlwR1TGzbzraQ", "alias": "founding-farmers-washington-washington-3", "name": "Founding Farmers - Washington", "image_url": "https://s3-media2.fl.yelpcdn.com/bphoto/AWpidG8KMEEIRmqiKEnZHA/o.jpg", "is_closed": false, "url": "https://www.yelp.com/biz/founding-farmers-washington-washington-3?adjust_creative=fud6KxY0xhsvbCIkEFnV1Q&utm_campaign=yelp_api_v3&utm_medium=api_v3_business_search&utm_source=fud6KxY0xhsvbCIkEFnV1Q", "review_count": 13319, "categories": [{"alias": "tradamerican", "title": "American (Traditional)"}, {"alias": "coffee", "title": "Coffee & Tea"}, {"alias": "breakfast_brunch", "title": "Breakfast & Brunch"}], "rating": 4.0, "coordinates": {"latitude": 38.90029, "longitude": -77.04442}, "transactions": [], "price": "$$", "location": {"address1": "1924 Pennsylvania Ave NW", "address2": "", "address3": "", "city": "Washington, DC", "zip_code": "20006", "country": "US", "state": "DC", "display_address": ["1924 Pennsylvania Ave NW", "Washington, DC 20006"]}, "phone": "+12028228783", "display_phone": "(202) 822-8783", "distance": 1715.3084483552204}, {"id": "iyBbcXtQSBfiwFQZwVBNaQ", "alias": "old-ebbitt-grill-washington", "name": "Old Ebbitt Grill", "image_url": "https://s3-media1.fl.yelpcdn.com/bphoto/kNwCX0Pe4-1nRBtgp1krNg/o.jpg", "is_closed": false, "url": "https://www.yelp.com/biz/old-ebbitt-grill-washington?adjust_creative=fud6KxY0xhsvbCIkEFnV1Q&utm_campaign=yelp_api_v3&utm_medium=api_v3_business_search&utm_source=fud6KxY0xhsvbCIkEFnV1Q", "review_count": 8210, "categories": [{"alias": "bars", "title": "Bars"}, {"alias": "tradamerican", "title": "American (Traditional)"}, {"alias": "breakfast_brunch", "title": "Breakfast & Brunch"}], "rating": 4.0, "coordinates": {"latitude": 38.898005, "longitude": -77.033362}, "transactions": [], "price": "$$", "location": {"address1": "675 15th St NW", "address2": "", "address3": "", "city": "Washington, DC", "zip_code": "20005", "country": "US", "state": "DC", "display_address": ["675 15th St NW", "Washington, DC 20005"]}, "phone": "+12023474800", "display_phone": "(202) 347-4800", "distance": 1496.279982474307}, {"id": "B-NQjTjaIPURVtpUQe0-3w", "alias": "the-pig-washington-2", "name": "The Pig", "image_url": "https://s3-media3.fl.yelpcdn.com/bphoto/ClQDnbima7wKmUKY4zFsmQ/o.jpg", "is_closed": false, "url": "https://www.yelp.com/biz/the-pig-washington-2?adjust_creative=fud6KxY0xhsvbCIkEFnV1Q&utm_campaign=yelp_api_v3&utm_medium=api_v3_business_search&utm_source=fud6KxY0xhsvbCIkEFnV1Q", "review_count": 1795, "categories": [{"alias": "tradamerican", "title": "American (Traditional)"}, {"alias": "cocktailbars", "title": "Cocktail Bars"}], "rating": 4.0, "coordinates": {"latitude": 38.90793, "longitude": -77.03229}, "transactions": ["pickup", "delivery"], "price": "$$", "location": {"address1": "1320 14th St NW", "address2": "", "address3": "", "city": "Washington, DC", "zip_code": "20005", "country": "US", "state": "DC", "display_address": ["1320 14th St NW", "Washington, DC 20005"]}, "phone": "+12022902821", "display_phone": "(202) 290-2821", "distance": 396.37586983355646}, {"id": "I7jd0Mm48zQNj75Tdw4jHQ", "alias": "mexicue-washington-2", "name": "Mexicue", "image_url": "https://s3-media3.fl.yelpcdn.com/bphoto/RX8WvJe74Eyn5Xz-Giqr1Q/o.jpg", "is_closed": false, "url": "https://www.yelp.com/biz/mexicue-washington-2?adjust_creative=fud6KxY0xhsvbCIkEFnV1Q&utm_campaign=yelp_api_v3&utm_medium=api_v3_business_search&utm_source=fud6KxY0xhsvbCIkEFnV1Q", "review_count": 56, "categories": [{"alias": "mexican", "title": "Mexican"}, {"alias": "breakfast_brunch", "title": "Breakfast & Brunch"}, {"alias": "cocktailbars", "title": "Cocktail Bars"}], "rating": 4.5, "coordinates": {"latitude": 38.91332, "longitude": -77.0324}, "transactions": ["restaurant_reservation"], "location": {"address1": "1720 14th St Nw", "address2": "", "address3": null, "city": "Washington, DC", "zip_code": "20009", "country": "US", "state": "DC", "display_address": ["1720 14th St Nw", "Washington, DC 20009"]}, "phone": "+12022341595", "display_phone": "(202) 234-1595", "distance": 262.697777318158}, {"id": "gSP06A0M972ahIlU3ivy2w", "alias": "farmbird-washington", "name": "Farmbird", "image_url": "https://s3-media4.fl.yelpcdn.com/bphoto/1aitJO-KQbSrygh5e5f-Fg/o.jpg", "is_closed": false, "url": "https://www.yelp.com/biz/farmbird-washington?adjust_creative=fud6KxY0xhsvbCIkEFnV1Q&utm_campaign=yelp_api_v3&utm_medium=api_v3_business_search&utm_source=fud6KxY0xhsvbCIkEFnV1Q", "review_count": 549, "categories": [{"alias": "chickenshop", "title": "Chicken Shop"}, {"alias": "newamerican", "title": "American (New)"}, {"alias": "tradamerican", "title": "American (Traditional)"}], "rating": 5.0, "coordinates": {"latitude": 38.89984, "longitude": -76.99734}, "transactions": ["delivery"], "price": "$$", "location": {"address1": "625A H St NE", "address2": null, "address3": "", "city": "Washington, DC", "zip_code": "20002", "country": "US", "state": "DC", "display_address": ["625A H St NE", "Washington, DC 20002"]}, "phone": "+12025066778", "display_phone": "(202) 506-6778", "distance": 3154.9976038444765}, {"id": "j9qYRR8HCXm_GEnetijOGA", "alias": "le-diplomate-washington", "name": "Le Diplomate", "image_url": "https://s3-media2.fl.yelpcdn.com/bphoto/2EljPz-cdiTQa6wTsIbI7Q/o.jpg", "is_closed": false, "url": "https://www.yelp.com/biz/le-diplomate-washington?adjust_creative=fud6KxY0xhsvbCIkEFnV1Q&utm_campaign=yelp_api_v3&utm_medium=api_v3_business_search&utm_source=fud6KxY0xhsvbCIkEFnV1Q", "review_count": 3345, "categories": [{"alias": "brasseries", "title": "Brasseries"}, {"alias": "french", "title": "French"}, {"alias": "breakfast_brunch", "title": "Breakfast & Brunch"}], "rating": 4.5, "coordinates": {"latitude": 38.911359, "longitude": -77.031575}, "transactions": [], "price": "$$$", "location": {"address1": "1601 14th St NW", "address2": "", "address3": "", "city": "Washington, DC", "zip_code": "20009", "country": "US", "state": "DC", "display_address": ["1601 14th St NW", "Washington, DC 20009"]}, "phone": "+12023323333", "display_phone": "(202) 332-3333", "distance": 88.94181251452841}, {"id": "9X0F8gl4mPSSFHkxSB2lXA", "alias": "il-canale-washington-2", "name": "il Canale", "image_url": "https://s3-media2.fl.yelpcdn.com/bphoto/Efxtyf-JZ43rNfZV1Z5cBQ/o.jpg", "is_closed": false, "url": "https://www.yelp.com/biz/il-canale-washington-2?adjust_creative=fud6KxY0xhsvbCIkEFnV1Q&utm_campaign=yelp_api_v3&utm_medium=api_v3_business_search&utm_source=fud6KxY0xhsvbCIkEFnV1Q", "review_count": 2893, "categories": [{"alias": "italian", "title": "Italian"}, {"alias": "pizza", "title": "Pizza"}], "rating": 4.5, "coordinates": {"latitude": 38.904493, "longitude": -77.0609744}, "transactions": ["pickup", "restaurant_reservation", "delivery"], "price": "$$", "location": {"address1": "1065 31st St NW", "address2": "", "address3": "", "city": "Washington, DC", "zip_code": "20007", "country": "US", "state": "DC", "display_address": ["1065 31st St NW", "Washington, DC 20007"]}, "phone": "+12023374444", "display_phone": "(202) 337-4444", "distance": 2731.530822512644}, {"id": "kVCCVqIikApTuD_SGHBwHg", "alias": "unconventional-diner-washington-3", "name": "Unconventional Diner", "image_url": "https://s3-media1.fl.yelpcdn.com/bphoto/ZEo-5W3nWS3wE21a7VwoRQ/o.jpg", "is_closed": false, "url": "https://www.yelp.com/biz/unconventional-diner-washington-3?adjust_creative=fud6KxY0xhsvbCIkEFnV1Q&utm_campaign=yelp_api_v3&utm_medium=api_v3_business_search&utm_source=fud6KxY0xhsvbCIkEFnV1Q", "review_count": 863, "categories": [{"alias": "newamerican", "title": "American (New)"}, {"alias": "breakfast_brunch", "title": "Breakfast & Brunch"}], "rating": 4.5, "coordinates": {"latitude": 38.906139, "longitude": -77.0238}, "transactions": ["delivery"], "price": "$$", "location": {"address1": "1207 9th St NW", "address2": "", "address3": null, "city": "Washington, DC", "zip_code": "20001", "country": "US", "state": "DC", "display_address": ["1207 9th St NW", "Washington, DC 20001"]}, "phone": "+12028470122", "display_phone": "(202) 847-0122", "distance": 823.8629574740099}, {"id": "Qt14DkOz6QNb6HoUdBguXw", "alias": "anju-washington", "name": "ANJU", "image_url": "https://s3-media4.fl.yelpcdn.com/bphoto/hcT1QR8rx9JLRtl0PdSOGg/o.jpg", "is_closed": false, "url": "https://www.yelp.com/biz/anju-washington?adjust_creative=fud6KxY0xhsvbCIkEFnV1Q&utm_campaign=yelp_api_v3&utm_medium=api_v3_business_search&utm_source=fud6KxY0xhsvbCIkEFnV1Q", "review_count": 49, "categories": [{"alias": "korean", "title": "Korean"}], "rating": 4.0, "coordinates": {"latitude": 38.91437, "longitude": -77.04149}, "transactions": [], "price": "$$", "location": {"address1": "1805 18th St NW", "address2": "", "address3": null, "city": "Washington, DC", "zip_code": "20009", "country": "US", "state": "DC", "display_address": ["1805 18th St NW", "Washington, DC 20009"]}, "phone": "+12028458935", "display_phone": "(202) 845-8935", "distance": 996.4381309053131}, {"id": "8m22ZO0_-qLjLPRrL2zawA", "alias": "the-alibi-washington", "name": "The Alibi", "image_url": "https://s3-media3.fl.yelpcdn.com/bphoto/RuIKRSyiUZlsu21igNKZ4g/o.jpg", "is_closed": false, "url": "https://www.yelp.com/biz/the-alibi-washington?adjust_creative=fud6KxY0xhsvbCIkEFnV1Q&utm_campaign=yelp_api_v3&utm_medium=api_v3_business_search&utm_source=fud6KxY0xhsvbCIkEFnV1Q", "review_count": 409, "categories": [{"alias": "pubs", "title": "Pubs"}, {"alias": "sandwiches", "title": "Sandwiches"}, {"alias": "bbq", "title": "Barbeque"}], "rating": 4.5, "coordinates": {"latitude": 38.89338, "longitude": -77.01346}, "transactions": ["pickup", "delivery"], "price": "$$", "location": {"address1": "237 2nd St NW", "address2": null, "address3": "", "city": "Washington, DC", "zip_code": "20001", "country": "US", "state": "DC", "display_address": ["237 2nd St NW", "Washington, DC 20001"]}, "phone": "+12023472237", "display_phone": "(202) 347-2237", "distance": 2482.9108384773235}, {"id": "2awGWwpPaU-dBQ7GemIYig", "alias": "roaming-rooster-restaurant-washington", "name": "Roaming Rooster - Restaurant", "image_url": "https://s3-media4.fl.yelpcdn.com/bphoto/GguCbwipHyIjXQb2Kq0kxg/o.jpg", "is_closed": false, "url": "https://www.yelp.com/biz/roaming-rooster-restaurant-washington?adjust_creative=fud6KxY0xhsvbCIkEFnV1Q&utm_campaign=yelp_api_v3&utm_medium=api_v3_business_search&utm_source=fud6KxY0xhsvbCIkEFnV1Q", "review_count": 173, "categories": [{"alias": "chickenshop", "title": "Chicken Shop"}, {"alias": "tradamerican", "title": "American (Traditional)"}], "rating": 4.5, "coordinates": {"latitude": 38.9294716398673, "longitude": -76.9605565443635}, "transactions": ["pickup", "delivery"], "location": {"address1": "3176 Bladensburg Rd NE", "address2": "", "address3": null, "city": "Washington, DC", "zip_code": "20018", "country": "US", "state": "DC", "display_address": ["3176 Bladensburg Rd NE", "Washington, DC 20018"]}, "phone": "+12025078734", "display_phone": "(202) 507-8734", "distance": 6391.071124523411}, {"id": "rvAvfiL7kwTp5bR02lHegA", "alias": "mazi-washington-2", "name": "Mazi", "image_url": "https://s3-media2.fl.yelpcdn.com/bphoto/4Le5zJbLQw-A1rmVEqb2jg/o.jpg", "is_closed": false, "url": "https://www.yelp.com/biz/mazi-washington-2?adjust_creative=fud6KxY0xhsvbCIkEFnV1Q&utm_campaign=yelp_api_v3&utm_medium=api_v3_business_search&utm_source=fud6KxY0xhsvbCIkEFnV1Q", "review_count": 119, "categories": [{"alias": "newamerican", "title": "American (New)"}], "rating": 4.5, "coordinates": {"latitude": 38.90213, "longitude": -77.03544}, "transactions": [], "location": {"address1": "1518 K St NW", "address2": null, "address3": "", "city": "Washington, DC", "zip_code": "20005", "country": "US", "state": "DC", "display_address": ["1518 K St NW", "Washington, DC 20005"]}, "phone": "+12029692858", "display_phone": "(202) 969-2858", "distance": 1094.8313683724755}, {"id": "g5K7gQLArdpXYqbw1yAFHw", "alias": "maydan-washington-2", "name": "Maydan", "image_url": "https://s3-media4.fl.yelpcdn.com/bphoto/sbAnebJksYKl8zyYfDgIMQ/o.jpg", "is_closed": false, "url": "https://www.yelp.com/biz/maydan-washington-2?adjust_creative=fud6KxY0xhsvbCIkEFnV1Q&utm_campaign=yelp_api_v3&utm_medium=api_v3_business_search&utm_source=fud6KxY0xhsvbCIkEFnV1Q", "review_count": 718, "categories": [{"alias": "moroccan", "title": "Moroccan"}, {"alias": "lebanese", "title": "Lebanese"}], "rating": 4.5, "coordinates": {"latitude": 38.9198436416598, "longitude": -77.0310185087658}, "transactions": [], "price": "$$", "location": {"address1": "1346 Florida Ave NW", "address2": "", "address3": null, "city": "Washington, DC", "zip_code": "20009", "country": "US", "state": "DC", "display_address": ["1346 Florida Ave NW", "Washington, DC 20009"]}, "phone": "+12023703696", "display_phone": "(202) 370-3696", "distance": 951.2880622764682}, {"id": "oXdLd4LNWEcgSqPLcsVO9A", "alias": "ambar-washington", "name": "Ambar", "image_url": "https://s3-media2.fl.yelpcdn.com/bphoto/4UCjmKsNMyMUjsPM4W4FWQ/o.jpg", "is_closed": false, "url": "https://www.yelp.com/biz/ambar-washington?adjust_creative=fud6KxY0xhsvbCIkEFnV1Q&utm_campaign=yelp_api_v3&utm_medium=api_v3_business_search&utm_source=fud6KxY0xhsvbCIkEFnV1Q", "review_count": 1510, "categories": [{"alias": "modern_european", "title": "Modern European"}], "rating": 4.5, "coordinates": {"latitude": 38.88208, "longitude": -76.99534}, "transactions": ["pickup"], "price": "$$", "location": {"address1": "523 8th St SE", "address2": "", "address3": "", "city": "Washington, DC", "zip_code": "20003", "country": "US", "state": "DC", "display_address": ["523 8th St SE", "Washington, DC 20003"]}, "phone": "+12028133039", "display_phone": "(202) 813-3039", "distance": 4474.410058293726}, {"id": "8pWrgtRGn4BqcOWb8ExxcA", "alias": "boqueria-penn-quarter-washington-4", "name": "Boqueria Penn Quarter", "image_url": "https://s3-media1.fl.yelpcdn.com/bphoto/roJJi6FcyIlQmOkyB2--5w/o.jpg", "is_closed": false, "url": "https://www.yelp.com/biz/boqueria-penn-quarter-washington-4?adjust_creative=fud6KxY0xhsvbCIkEFnV1Q&utm_campaign=yelp_api_v3&utm_medium=api_v3_business_search&utm_source=fud6KxY0xhsvbCIkEFnV1Q", "review_count": 176, "categories": [{"alias": "spanish", "title": "Spanish"}, {"alias": "tapas", "title": "Tapas Bars"}, {"alias": "tapasmallplates", "title": "Tapas/Small Plates"}], "rating": 4.5, "coordinates": {"latitude": 38.89933, "longitude": -77.02353}, "transactions": [], "location": {"address1": "777 9th St NW", "address2": "", "address3": null, "city": "Washington, DC", "zip_code": "20001", "country": "US", "state": "DC", "display_address": ["777 9th St NW", "Washington, DC 20001"]}, "phone": "+12025523268", "display_phone": "(202) 552-3268", "distance": 1448.9007222107123}, {"id": "Sd9A-WKorTYI02gRvWMNjA", "alias": "thip-khao-washington", "name": "Thip Khao", "image_url": "https://s3-media2.fl.yelpcdn.com/bphoto/I8JPEU42I12W1V0zZi8IUA/o.jpg", "is_closed": false, "url": "https://www.yelp.com/biz/thip-khao-washington?adjust_creative=fud6KxY0xhsvbCIkEFnV1Q&utm_campaign=yelp_api_v3&utm_medium=api_v3_business_search&utm_source=fud6KxY0xhsvbCIkEFnV1Q", "review_count": 1062, "categories": [{"alias": "laotian", "title": "Laotian"}], "rating": 4.5, "coordinates": {"latitude": 38.933025306328, "longitude": -77.0329276871505}, "transactions": [], "price": "$$", "location": {"address1": "3462 14th St NW", "address2": "", "address3": "", "city": "Washington, DC", "zip_code": "20010", "country": "US", "state": "DC", "display_address": ["3462 14th St NW", "Washington, DC 20010"]}, "phone": "+12023875426", "display_phone": "(202) 387-5426", "distance": 2424.548983057493}, {"id": "Kum_yBojFgplX6U68iUR4g", "alias": "ankara-washington", "name": "ANKARA", "image_url": "https://s3-media1.fl.yelpcdn.com/bphoto/4nX36vG5NvNKerQSOw8AOg/o.jpg", "is_closed": false, "url": "https://www.yelp.com/biz/ankara-washington?adjust_creative=fud6KxY0xhsvbCIkEFnV1Q&utm_campaign=yelp_api_v3&utm_medium=api_v3_business_search&utm_source=fud6KxY0xhsvbCIkEFnV1Q", "review_count": 509, "categories": [{"alias": "mediterranean", "title": "Mediterranean"}, {"alias": "turkish", "title": "Turkish"}], "rating": 4.0, "coordinates": {"latitude": 38.9081, "longitude": -77.04377}, "transactions": ["pickup", "restaurant_reservation", "delivery"], "price": "$$", "location": {"address1": "1320 19th St NW", "address2": "", "address3": "", "city": "Washington, DC", "zip_code": "20036", "country": "US", "state": "DC", "display_address": ["1320 19th St NW", "Washington, DC 20036"]}, "phone": "+12022936301", "display_phone": "(202) 293-6301", "distance": 1187.157450604268}, {"id": "bdb85Aq7xN9gajZs5xAi5w", "alias": "federalist-pig-washington-4", "name": "Federalist Pig", "image_url": "https://s3-media2.fl.yelpcdn.com/bphoto/hEDMNFlyCR0KJhERswxNgQ/o.jpg", "is_closed": false, "url": "https://www.yelp.com/biz/federalist-pig-washington-4?adjust_creative=fud6KxY0xhsvbCIkEFnV1Q&utm_campaign=yelp_api_v3&utm_medium=api_v3_business_search&utm_source=fud6KxY0xhsvbCIkEFnV1Q", "review_count": 512, "categories": [{"alias": "bbq", "title": "Barbeque"}, {"alias": "sandwiches", "title": "Sandwiches"}, {"alias": "chicken_wings", "title": "Chicken Wings"}], "rating": 4.5, "coordinates": {"latitude": 38.92503, "longitude": -77.03863}, "transactions": ["delivery"], "price": "$$", "location": {"address1": "1654 Columbia Rd NW", "address2": "", "address3": null, "city": "Washington, DC", "zip_code": "20009", "country": "US", "state": "DC", "display_address": ["1654 Columbia Rd NW", "Washington, DC 20009"]}, "phone": "", "display_phone": "", "distance": 1676.012706654575}, {"id": "Z0v0NOziKoF6g_NzO68Z6g", "alias": "reren-washington", "name": "Reren", "image_url": "https://s3-media1.fl.yelpcdn.com/bphoto/mMeWOLbw6DROLDJTE-5AqA/o.jpg", "is_closed": false, "url": "https://www.yelp.com/biz/reren-washington?adjust_creative=fud6KxY0xhsvbCIkEFnV1Q&utm_campaign=yelp_api_v3&utm_medium=api_v3_business_search&utm_source=fud6KxY0xhsvbCIkEFnV1Q", "review_count": 1778, "categories": [{"alias": "ramen", "title": "Ramen"}, {"alias": "asianfusion", "title": "Asian Fusion"}, {"alias": "chinese", "title": "Chinese"}], "rating": 4.0, "coordinates": {"latitude": 38.900318145752, "longitude": -77.0215911865234}, "transactions": ["pickup", "delivery"], "price": "$$", "location": {"address1": "817 7th St NW", "address2": null, "address3": "", "city": "Washington, DC", "zip_code": "20001", "country": "US", "state": "DC", "display_address": ["817 7th St NW", "Washington, DC 20001"]}, "phone": "+12022903677", "display_phone": "(202) 290-3677", "distance": 1439.9445600233496}, {"id": "iqV-9rIC-azTw9OQQc8Vhw", "alias": "district-taco-washington-6", "name": "District Taco", "image_url": "https://s3-media3.fl.yelpcdn.com/bphoto/ZeENlUMU0yPpf-ge8U09_g/o.jpg", "is_closed": false, "url": "https://www.yelp.com/biz/district-taco-washington-6?adjust_creative=fud6KxY0xhsvbCIkEFnV1Q&utm_campaign=yelp_api_v3&utm_medium=api_v3_business_search&utm_source=fud6KxY0xhsvbCIkEFnV1Q", "review_count": 1548, "categories": [{"alias": "mexican", "title": "Mexican"}], "rating": 4.0, "coordinates": {"latitude": 38.8975982666016, "longitude": -77.030158996582}, "transactions": [], "price": "$", "location": {"address1": "1309 F St NW", "address2": "", "address3": "", "city": "Washington, DC", "zip_code": "20004", "country": "US", "state": "DC", "display_address": ["1309 F St NW", "Washington, DC 20004"]}, "phone": "+12023477359", "display_phone": "(202) 347-7359", "distance": 1523.5626645153814}], "total": 6800, "region": {"center": {"longitude": -77.0306396484375, "latitude": 38.911293573163775}}}